<markers>
<marker name="Learning Technics" address="3809 SW Temple Ste. #2c" city="Salt Lake City, UT 84115" lat="40.6884830" lng="-111.8936380" phone="(801) 269-9315" />

<marker name="Learning Technics Corporate Headquarters" address="126 West 12300 South" city="Draper, UT 84020" phone="(801) 571-1016" lat="40.5270102" lng="-111.8942020"/>

<marker name="Learning Technics" address="11 E. 200 N. Ste. 203" city="Orem, UT 84057" lat="40.3011750" lng="-111.6958370" phone="(801) 221-9944" />

<marker name="Learning Technics" address="3544 S. Lincoln Ste B" city="Ogden, UT 84401" lat="41.1992389" lng="-111.9765752" phone="(801) 393-3009" />

<marker name="The Learning Solution" address="347 W. Gordon Ave. Ste. 2" city="Layton, UT 84041" lat="41.0747297" lng="-111.9705079" phone="(801) 546-9800" />

<marker name="Learning Technics" address="2417 Bank Dr Ste. 300" city="Boise, ID 83705" lat="43.5906590" lng="-116.2115220" phone="(208) 440-5342" />

<marker name="Permanent Learning Solutions" address="9480 S. Eastern Avenue" city="Las Vegas, NV. 89123" lat="36.0160686" lng="-115.1176322" phone="(702) 457-7575" />

<marker name="Permanent Learning Solutions" address="475 Moapa Valley Blvd." city="Overton, NV. 89040" lat="36.5339111" lng="-114.4430355" phone="(702) 397-8428" />

<marker name="Neurolinks" address="87 Penn St." city="Brooklyn, NY 11211" lat="40.7017240" lng="-73.9592720" phone="(718) 422-7905" />

<marker name="Learning Solutions" address="354 NE Greenwood, Suite 206" city="Bend, OR 97701" lat="44.0602450" lng="-121.3013060" phone="(541) 382-1118" />

</markers>